City_ID,City,Country,Date,Lat,Lng,Max Temp,Humidity,Cloudiness,Wind Speed,Current Description
0,Nizhnyaya Tavda,RU,2021-09-17 12:12:29,57.6731,66.1725,39.42,97,100,14.45,overcast clouds
1,Shizunai,JP,2021-09-17 12:09:52,42.3339,142.3669,62.56,88,100,15.5,light rain
2,Gat,IL,2021-09-17 12:12:30,31.61,34.7642,89.4,41,0,14.99,clear sky
3,Boyolangu,ID,2021-09-17 12:12:30,-8.1181,111.8935,75.81,90,97,5.99,overcast clouds
4,Tevaitoa,PF,2021-09-17 12:12:30,-16.7833,-151.5,78.35,74,9,25.28,clear sky
5,Narsaq,GL,2021-09-17 12:12:31,60.9167,-46.05,39.42,72,89,2.68,overcast clouds
6,Port Elizabeth,ZA,2021-09-17 12:12:31,-33.918,25.5701,65.1,56,76,10.87,broken clouds
7,Barrow,US,2021-09-17 12:12:32,71.2906,-156.7887,33.82,93,90,3.44,mist
8,Dikson,RU,2021-09-17 12:12:32,73.5069,80.5464,33.89,71,100,17.6,overcast clouds
9,Novorzhev,RU,2021-09-17 12:12:32,57.0294,29.3338,54.55,47,53,10.31,broken clouds
10,Faanui,PF,2021-09-17 12:12:33,-16.4833,-151.75,78.55,73,7,24.56,light rain
11,Guiratinga,BR,2021-09-17 12:12:33,-16.3494,-53.7583,89.02,30,19,5.91,few clouds
12,Nikolskoye,RU,2021-09-17 12:12:33,59.7035,30.7861,49.89,48,43,7.92,scattered clouds
13,Galle,LK,2021-09-17 12:12:34,6.0367,80.217,81.55,82,72,10.94,broken clouds
14,Ushuaia,AR,2021-09-17 12:11:33,-54.8,-68.3,33.46,86,75,3.44,broken clouds
15,Camacupa,AO,2021-09-17 12:02:42,-12.0167,17.4833,93.33,12,29,6.73,scattered clouds
16,Tuktoyaktuk,CA,2021-09-17 12:12:34,69.4541,-133.0374,42.57,83,100,12.82,overcast clouds
17,Punta Arenas,CL,2021-09-17 12:12:35,-53.15,-70.9167,35.71,100,90,8.05,overcast clouds
18,Thompson,CA,2021-09-17 12:12:36,55.7435,-97.8558,44.76,93,90,10.36,overcast clouds
19,Luderitz,NA,2021-09-17 12:12:36,-26.6481,15.1594,64.13,51,0,10.31,clear sky
20,Pontianak,ID,2021-09-17 12:08:39,-0.0333,109.3333,82.38,83,75,0.0,thunderstorm
21,Puerto Ayora,EC,2021-09-17 12:12:37,-0.7393,-90.3518,66.54,98,95,5.01,overcast clouds
22,Port Alfred,ZA,2021-09-17 12:12:37,-33.5906,26.891,62.02,58,74,17.47,broken clouds
23,Pevek,RU,2021-09-17 12:12:38,69.7008,170.3133,32.45,100,100,7.09,snow
24,Yellowknife,CA,2021-09-17 12:09:33,62.456,-114.3525,37.04,74,78,6.67,broken clouds
25,Marathon,US,2021-09-17 12:12:38,44.9,-89.7668,63.81,78,40,5.75,scattered clouds
26,Mataura,NZ,2021-09-17 12:12:38,-46.1927,168.8643,36.48,86,9,3.78,clear sky
27,Davila,PH,2021-09-17 12:12:39,18.4726,120.5763,83.91,81,76,9.51,light rain
28,Bengkulu,ID,2021-09-17 12:12:39,-3.8004,102.2655,80.26,82,67,7.65,broken clouds
29,Hilo,US,2021-09-17 12:12:26,19.7297,-155.09,73.8,87,90,5.75,light rain
30,Itoman,JP,2021-09-17 12:12:40,26.1247,127.6694,82.42,78,20,6.91,few clouds
31,Belmonte,BR,2021-09-17 12:12:40,-15.8631,-38.8828,79.3,54,9,10.07,clear sky
32,Kahului,US,2021-09-17 12:12:41,20.8947,-156.47,78.82,73,1,19.57,clear sky
33,Pangnirtung,CA,2021-09-17 12:12:41,66.1451,-65.7125,33.98,77,99,3.2,overcast clouds
34,Kupino,RU,2021-09-17 12:12:41,54.3663,77.2981,58.53,43,88,15.32,overcast clouds
35,Sangmelima,CM,2021-09-17 12:12:42,2.9333,11.9833,74.34,80,100,2.86,overcast clouds
36,Bondeno,IT,2021-09-17 12:12:42,44.8862,11.4108,79.11,74,94,1.99,overcast clouds
37,Belle Fourche,US,2021-09-17 12:12:43,44.6714,-103.8522,49.05,44,1,4.68,clear sky
38,Albany,US,2021-09-17 12:10:17,42.6001,-73.9662,66.78,91,22,3.04,few clouds
39,Yumen,CN,2021-09-17 12:12:43,40.2833,97.2,74.7,21,14,4.45,few clouds
40,Aginskoye,RU,2021-09-17 12:12:44,51.1,114.53,47.95,51,88,7.87,overcast clouds
41,Labuhan,ID,2021-09-17 12:12:44,-6.8844,112.2051,82.72,71,66,9.37,broken clouds
42,Xiamen,CN,2021-09-17 12:12:45,24.4798,118.0819,80.96,85,9,8.08,clear sky
43,Zarechnyy,RU,2021-09-17 12:12:45,53.2036,45.1923,49.17,48,100,7.72,overcast clouds
44,Bluff,NZ,2021-09-17 12:12:45,-46.6,168.3333,36.81,74,14,12.86,few clouds
45,Avarua,CK,2021-09-17 12:12:46,-21.2078,-159.775,75.25,78,90,16.11,overcast clouds
46,Chokurdakh,RU,2021-09-17 12:12:46,70.6333,147.9167,34.7,98,100,9.66,overcast clouds
47,Komsomolskiy,UZ,2021-09-17 12:12:46,40.4272,71.7189,90.32,14,0,4.61,clear sky
48,Whitianga,NZ,2021-09-17 12:12:47,-36.8333,175.7,51.03,71,91,6.8,overcast clouds
49,Harper,LR,2021-09-17 12:12:47,4.375,-7.7169,80.11,79,89,9.28,light rain
50,Naze,JP,2021-09-17 12:12:47,28.3667,129.4833,77.52,78,38,9.51,scattered clouds
51,Codajas,BR,2021-09-17 12:12:48,-3.8367,-62.0569,79.54,74,22,2.17,few clouds
52,Mount Gambier,AU,2021-09-17 12:12:48,-37.8333,140.7667,51.82,89,45,12.66,scattered clouds
53,Hermanus,ZA,2021-09-17 12:12:49,-34.4187,19.2345,72.9,58,37,17.45,scattered clouds
54,Hithadhoo,MV,2021-09-17 12:12:49,-0.6,73.0833,82.38,74,100,6.76,light rain
55,Vaini,TO,2021-09-17 12:12:49,-21.2,-175.2,71.76,100,20,4.61,few clouds
56,Qaanaaq,GL,2021-09-17 12:12:50,77.484,-69.3632,11.03,68,24,7.63,few clouds
57,Hirado,JP,2021-09-17 12:12:50,33.3597,129.5531,74.12,90,97,35.25,overcast clouds
58,Pangkalanbuun,ID,2021-09-17 12:12:51,-2.6833,111.6167,77.77,86,47,3.42,moderate rain
59,Chuy,UY,2021-09-17 12:12:51,-33.6971,-53.4616,57.04,75,0,7.18,clear sky
60,Glendive,US,2021-09-17 12:11:19,47.1053,-104.7125,43.18,39,0,7.52,clear sky
61,Vanersborg,SE,2021-09-17 12:12:51,58.3807,12.3234,52.92,87,90,16.11,overcast clouds
62,Tiksi,RU,2021-09-17 12:12:52,71.6872,128.8694,36.07,83,100,15.86,overcast clouds
63,Plettenberg Bay,ZA,2021-09-17 12:12:52,-34.0527,23.3716,59.47,61,72,6.38,broken clouds
64,Flinders,AU,2021-09-17 12:12:53,-34.5833,150.8552,62.26,81,74,1.99,broken clouds
65,Changping,CN,2021-09-17 12:12:53,40.2186,116.2197,64.04,62,55,2.24,light rain
66,Dzilam Gonzalez,MX,2021-09-17 12:12:54,21.2833,-88.9333,75.72,97,94,4.54,overcast clouds
67,Puri,IN,2021-09-17 12:12:54,19.8,85.85,84.72,75,73,7.76,broken clouds
68,Kapaa,US,2021-09-17 12:12:54,22.0752,-159.319,79.12,77,40,1.01,light rain
69,Astoria,US,2021-09-17 12:12:55,46.1879,-123.8313,54.93,88,90,1.99,overcast clouds
70,Atar,MR,2021-09-17 12:12:55,20.5169,-13.0499,93.34,20,92,5.44,overcast clouds
71,Ravar,IR,2021-09-17 12:12:56,31.2656,56.8055,94.42,4,0,10.47,clear sky
72,Ponta Do Sol,PT,2021-09-17 12:12:56,32.6667,-17.1,81.72,74,61,3.67,broken clouds
73,Butaritari,KI,2021-09-17 12:12:56,3.0707,172.7902,82.9,71,40,14.23,scattered clouds
74,Mahenge,TZ,2021-09-17 12:12:57,-8.6833,36.7167,84.88,32,55,3.06,broken clouds
75,Urengoy,RU,2021-09-17 12:12:57,65.9667,78.3667,40.75,92,100,23.6,light rain
76,Surt,LY,2021-09-17 12:12:57,31.2089,16.5887,84.99,43,0,9.64,clear sky
77,Kargasok,RU,2021-09-17 12:12:58,59.0556,80.8572,53.85,88,57,7.2,light rain
78,Panzhihua,CN,2021-09-17 12:12:58,26.5851,101.7128,72.95,85,71,2.1,broken clouds
79,Stephenville Crossing,CA,2021-09-17 12:12:59,48.5,-58.4318,55.22,97,49,4.27,scattered clouds
80,Rikitea,PF,2021-09-17 12:12:59,-23.1203,-134.9692,68.83,88,57,13.44,moderate rain
81,Berezovyy,RU,2021-09-17 12:12:59,51.6667,135.7,49.6,69,13,4.79,few clouds
82,Great Falls,US,2021-09-17 12:08:03,47.5002,-111.3008,49.41,69,1,9.22,clear sky
83,Busselton,AU,2021-09-17 12:13:00,-33.65,115.3333,51.08,65,52,7.38,broken clouds
84,Pushkar,IN,2021-09-17 12:13:00,26.5,74.55,81.1,70,99,15.88,overcast clouds
85,Sao Filipe,CV,2021-09-17 12:13:01,14.8961,-24.4956,79.72,80,97,10.33,overcast clouds
86,Sioux Lookout,CA,2021-09-17 12:12:43,50.1001,-91.917,47.21,83,81,10.6,broken clouds
87,Porto Novo,BJ,2021-09-17 12:13:01,6.4965,2.6036,89.04,55,97,1.41,overcast clouds
88,Dalnerechensk,RU,2021-09-17 12:13:02,45.9339,133.7225,57.58,71,0,5.91,clear sky
89,Aklavik,CA,2021-09-17 12:13:02,68.2191,-135.0107,43.02,82,96,7.7,overcast clouds
90,Boddam,GB,2021-09-17 12:13:03,57.4667,-1.7833,66.09,90,100,20.11,overcast clouds
91,Dingle,PH,2021-09-17 12:13:03,10.9995,122.6711,75.56,92,72,5.44,broken clouds
92,Marystown,CA,2021-09-17 12:03:21,47.1666,-55.1483,58.12,67,0,3.51,clear sky
93,Provideniya,RU,2021-09-17 12:12:20,64.3833,-173.3,36.88,77,66,3.6,broken clouds
94,Batagay,RU,2021-09-17 12:13:04,67.6333,134.6333,44.94,96,100,3.49,light rain
95,Emmett,US,2021-09-17 12:13:04,43.8735,-116.4993,51.93,24,23,6.58,few clouds
96,Cape Town,ZA,2021-09-17 12:08:55,-33.9258,18.4232,73.11,59,0,4.0,clear sky
97,Ust-Kut,RU,2021-09-17 12:13:05,56.7938,105.7672,42.71,66,89,3.65,overcast clouds
98,Norman Wells,CA,2021-09-17 12:13:05,65.282,-126.8329,40.86,86,52,5.99,broken clouds
99,Saveh,IR,2021-09-17 12:13:06,35.0213,50.3566,95.79,6,0,12.08,clear sky
100,Vilhena,BR,2021-09-17 12:13:06,-12.7406,-60.1458,81.75,49,5,3.33,clear sky
101,Atuona,PF,2021-09-17 12:10:32,-9.8,-139.0333,77.5,72,5,20.56,clear sky
102,Victoria,HK,2021-09-17 12:11:32,22.2855,114.1577,87.33,78,4,1.01,light rain
103,Lebu,CL,2021-09-17 12:13:07,-37.6167,-73.65,49.87,85,89,2.95,overcast clouds
104,Kodiak,US,2021-09-17 12:13:07,57.79,-152.4072,48.34,89,100,15.21,overcast clouds
105,Lagos,NG,2021-09-17 12:08:14,6.5833,3.75,87.46,61,100,3.69,overcast clouds
106,Mutoko,ZW,2021-09-17 12:13:08,-17.397,32.2268,92.1,14,39,7.76,scattered clouds
107,Bredasdorp,ZA,2021-09-17 12:13:08,-34.5322,20.0403,61.29,55,54,16.33,broken clouds
108,College,US,2021-09-17 12:13:09,64.8569,-147.8028,44.29,80,20,0.0,few clouds
109,Jacareacanga,BR,2021-09-17 12:13:09,-6.2222,-57.7528,84.22,56,6,2.91,clear sky
110,Ahuimanu,US,2021-09-17 12:13:10,21.4447,-157.8378,78.51,74,75,12.66,light rain
111,Coruripe,BR,2021-09-17 12:13:10,-10.1256,-36.1756,76.98,79,24,14.99,few clouds
112,Enid,US,2021-09-17 12:08:22,36.3956,-97.8784,69.31,85,1,3.0,clear sky
113,Upernavik,GL,2021-09-17 12:10:08,72.7868,-56.1549,27.03,72,94,5.93,overcast clouds
114,Sfantu Gheorghe,RO,2021-09-17 12:13:11,45.8667,25.7833,77.67,58,100,1.97,overcast clouds
115,East London,ZA,2021-09-17 12:13:11,-33.0153,27.9116,63.3,50,80,18.59,broken clouds
116,Lata,PT,2021-09-17 12:13:11,40.1629,-8.3327,76.35,47,55,7.31,broken clouds
117,Arraial Do Cabo,BR,2021-09-17 12:13:11,-22.9661,-42.0278,71.46,73,75,4.61,broken clouds
118,Vila Franca Do Campo,PT,2021-09-17 12:13:12,37.7167,-25.4333,72.01,88,73,6.87,broken clouds
119,El Viejo,NI,2021-09-17 12:13:12,12.6633,-87.1672,74.1,93,30,3.51,scattered clouds
120,Jamestown,US,2021-09-17 12:10:05,42.097,-79.2353,68.07,95,90,5.01,overcast clouds
121,Avera,US,2021-09-17 12:13:13,33.194,-82.5271,71.71,91,92,4.63,overcast clouds
122,Bethel,US,2021-09-17 12:13:13,41.3712,-73.414,68.05,93,90,8.05,mist
123,Miahuatlan,MX,2021-09-17 12:13:14,18.5667,-97.4333,57.87,81,100,2.64,overcast clouds
124,Tutin,RS,2021-09-17 12:13:14,42.9903,20.3314,78.3,34,93,16.53,overcast clouds
125,Hammerfest,NO,2021-09-17 12:13:15,70.6634,23.6821,49.73,66,0,11.5,clear sky
126,Hasaki,JP,2021-09-17 12:13:15,35.7333,140.8333,72.0,67,100,17.74,overcast clouds
127,Srednekolymsk,RU,2021-09-17 12:12:19,67.45,153.6833,46.69,69,84,4.92,broken clouds
128,Nantucket,US,2021-09-17 12:12:31,41.2835,-70.0995,70.03,94,100,17.96,overcast clouds
129,Bucerias,MX,2021-09-17 12:13:16,20.75,-105.3333,75.97,100,53,4.85,broken clouds
130,Qaqortoq,GL,2021-09-17 12:13:16,60.7167,-46.0333,39.7,81,89,4.9,overcast clouds
131,Puerto Madryn,AR,2021-09-17 12:13:16,-42.7692,-65.0385,57.24,56,98,5.79,overcast clouds
132,Morant Bay,JM,2021-09-17 12:13:17,17.8815,-76.4093,83.66,82,70,10.16,broken clouds
133,Padang,ID,2021-09-17 12:13:17,-0.9492,100.3543,77.05,85,71,2.51,light rain
134,Meulaboh,ID,2021-09-17 12:13:18,4.1363,96.1285,80.56,77,97,6.29,overcast clouds
135,Lamar,US,2021-09-17 12:13:18,33.6668,-95.5836,71.26,94,0,3.69,clear sky
136,Hobart,AU,2021-09-17 12:13:18,-42.8794,147.3294,56.26,68,75,4.0,moderate rain
137,Yerofey Pavlovich,RU,2021-09-17 12:13:19,53.9667,121.9667,32.99,90,39,4.36,scattered clouds
138,Hwange,ZW,2021-09-17 12:13:19,-18.3693,26.5019,100.69,11,5,4.99,clear sky
139,Khatanga,RU,2021-09-17 12:13:19,71.9667,102.5,30.54,77,71,8.39,broken clouds
140,Portland,US,2021-09-17 12:10:13,45.5234,-122.6762,58.1,57,100,1.01,overcast clouds
141,Sao Joao Da Barra,BR,2021-09-17 12:13:20,-21.6403,-41.0511,71.69,88,94,10.36,overcast clouds
142,Shelburne,CA,2021-09-17 12:13:20,44.0787,-80.2041,58.77,95,0,6.51,clear sky
143,Pacific Grove,US,2021-09-17 12:13:21,36.6177,-121.9166,57.42,87,90,1.99,overcast clouds
144,Yatou,CN,2021-09-17 12:13:21,37.15,122.3833,67.42,90,28,6.42,scattered clouds
145,Orotukan,RU,2021-09-17 12:13:21,62.2667,151.7,46.38,74,1,9.93,clear sky
146,Erdenet,MN,2021-09-17 12:13:22,49.0333,104.0833,49.96,88,99,1.81,overcast clouds
147,Antalaha,MG,2021-09-17 12:13:22,-14.9003,50.2788,75.69,68,98,8.99,overcast clouds
148,Guanare,VE,2021-09-17 12:13:23,9.0418,-69.7421,74.37,84,12,2.24,few clouds
149,Hamilton,US,2021-09-17 12:08:46,39.1834,-84.5333,66.99,96,1,0.0,fog
150,Metro,ID,2021-09-17 12:13:23,-5.1131,105.3067,78.93,78,91,7.02,overcast clouds
151,Yima,CN,2021-09-17 12:13:24,34.7381,111.8839,62.74,98,100,7.67,light rain
152,Yamada,JP,2021-09-17 12:13:24,39.4667,141.95,67.23,94,100,11.03,overcast clouds
153,Tasiilaq,GL,2021-09-17 12:13:25,65.6145,-37.6368,37.56,59,93,6.62,overcast clouds
154,Honggang,CN,2021-09-17 12:13:25,46.4667,124.8667,63.16,73,4,9.37,clear sky
155,Nishihara,JP,2021-09-17 12:13:26,26.1842,127.7558,81.68,78,20,6.91,few clouds
156,Tucurui,BR,2021-09-17 12:13:26,-3.7661,-49.6725,83.3,66,62,6.11,broken clouds
157,Kermanshah,IR,2021-09-17 12:13:13,34.3142,47.065,88.7,7,0,4.61,clear sky
158,Guerrero Negro,MX,2021-09-17 12:13:27,27.9769,-114.0611,69.48,82,71,12.15,broken clouds
159,Lerwick,GB,2021-09-17 12:13:27,60.1545,-1.1494,59.0,86,100,28.88,overcast clouds
160,Inuvik,CA,2021-09-17 12:13:28,68.3499,-133.7218,44.19,76,100,6.87,overcast clouds
161,Cabo San Lucas,MX,2021-09-17 12:09:47,22.8909,-109.9124,78.62,88,50,5.01,scattered clouds
162,Coquimbo,CL,2021-09-17 12:08:46,-29.9533,-71.3436,53.33,87,90,4.61,overcast clouds
163,Deputatskiy,RU,2021-09-17 12:12:19,69.3,139.9,38.82,93,100,1.79,light rain
164,Maniitsoq,GL,2021-09-17 12:13:28,65.4167,-52.9,36.45,43,78,4.81,broken clouds
165,Iqaluit,CA,2021-09-17 12:13:29,63.7506,-68.5145,35.33,80,90,19.57,light snow
166,Dongsheng,CN,2021-09-17 12:13:29,39.8161,109.9776,64.4,34,20,8.61,few clouds
167,New Norfolk,AU,2021-09-17 12:13:30,-42.7826,147.0587,55.92,61,100,3.22,overcast clouds
168,Caucasia,CO,2021-09-17 12:13:30,7.9865,-75.1935,74.89,96,91,2.8,overcast clouds
169,Calama,CL,2021-09-17 12:13:31,-22.4667,-68.9333,61.39,12,5,6.53,clear sky
170,Karratha,AU,2021-09-17 12:13:31,-20.7377,116.8463,75.15,49,16,10.94,few clouds
171,Belyy,RU,2021-09-17 12:13:31,55.8402,32.9419,53.19,44,70,8.5,broken clouds
172,Imphal,IN,2021-09-17 12:09:54,24.8167,93.95,71.89,94,98,2.64,overcast clouds
173,Haines Junction,CA,2021-09-17 12:13:32,60.7522,-137.5108,37.04,91,100,1.39,overcast clouds
174,Codrington,AU,2021-09-17 12:13:32,-38.2667,141.9667,51.13,82,47,11.21,scattered clouds
175,Inzhavino,RU,2021-09-17 12:13:33,52.3185,42.4937,55.17,49,100,4.54,light rain
176,Geraldton,AU,2021-09-17 12:13:33,-28.7667,114.6,52.21,82,1,5.75,clear sky
177,Carnarvon,AU,2021-09-17 12:13:34,-24.8667,113.6333,64.47,63,0,20.71,clear sky
178,Yulara,AU,2021-09-17 12:13:34,-25.2406,130.9889,71.44,30,0,6.91,clear sky
179,Airai,TL,2021-09-17 12:13:34,-8.9266,125.4092,59.0,76,50,2.84,scattered clouds
180,Aban,RU,2021-09-17 12:13:35,56.67,96.06,51.89,87,31,6.4,scattered clouds
181,Atkinson,US,2021-09-17 12:08:39,42.8384,-71.147,64.36,91,90,1.99,overcast clouds
182,Kyshtovka,RU,2021-09-17 12:13:35,56.555,76.6271,51.69,59,41,12.01,scattered clouds
183,Bonavista,CA,2021-09-17 12:13:36,48.6499,-53.1147,60.12,77,17,12.15,few clouds
184,Quelimane,MZ,2021-09-17 12:13:36,-17.8786,36.8883,85.95,66,0,12.66,clear sky
185,Sobolevo,RU,2021-09-17 12:13:37,54.4299,31.8996,41.94,90,100,11.32,light rain
186,Kondinskoye,RU,2021-09-17 12:13:37,59.6481,67.41,39.42,97,100,18.19,light rain
187,Toktogul,KG,2021-09-17 12:13:37,41.8708,72.9402,80.46,20,0,3.4,clear sky
188,Mahebourg,MU,2021-09-17 12:13:38,-20.4081,57.7,76.24,76,31,10.07,scattered clouds
189,Teguise,ES,2021-09-17 12:13:38,29.0605,-13.564,77.22,57,40,19.57,scattered clouds
190,Terrace,CA,2021-09-17 12:13:38,54.5163,-128.6035,43.43,99,100,1.95,moderate rain
191,Ahipara,NZ,2021-09-17 12:13:39,-35.1667,173.1667,53.65,77,54,11.72,broken clouds
192,Hay River,CA,2021-09-17 12:11:42,60.8156,-115.7999,38.1,87,87,8.01,overcast clouds
193,Adrar,MR,2021-09-17 12:13:39,20.5022,-10.0711,95.0,27,100,5.7,overcast clouds
194,Jardim,BR,2021-09-17 12:13:40,-21.4803,-56.1381,84.09,51,41,8.39,scattered clouds
195,Hami,CN,2021-09-17 12:13:40,42.8,93.45,82.76,17,89,7.92,overcast clouds
196,Kapuskasing,CA,2021-09-17 12:13:40,49.4169,-82.4331,59.02,81,100,10.58,overcast clouds
197,Calamar,CO,2021-09-17 12:13:41,10.2511,-74.9146,80.55,87,4,4.59,clear sky
198,Winnemucca,US,2021-09-17 12:13:41,40.973,-117.7357,42.85,42,1,0.0,clear sky
199,Castro,BR,2021-09-17 12:13:42,-24.7911,-50.0119,55.81,97,100,9.82,overcast clouds
200,Eureka,US,2021-09-17 12:13:42,40.8021,-124.1637,52.93,90,21,1.99,few clouds
201,Atascadero,US,2021-09-17 12:13:42,35.4894,-120.6707,54.32,89,12,2.08,few clouds
202,Shibetsu,JP,2021-09-17 12:13:43,43.659,145.132,55.13,84,84,10.56,broken clouds
203,Pervomayskoye,RU,2021-09-17 12:13:43,43.919,46.7102,70.29,45,88,13.47,overcast clouds
204,Bayonet Point,US,2021-09-17 12:13:43,28.3267,-82.6834,78.94,97,97,5.84,overcast clouds
205,Dabeiba,CO,2021-09-17 12:13:44,7.0017,-76.2672,73.08,93,79,2.86,broken clouds
206,Port Lincoln,AU,2021-09-17 12:13:44,-34.7333,135.8667,54.64,64,4,22.24,clear sky
207,Yagodnoye,RU,2021-09-17 12:13:45,62.55,149.6667,44.29,79,16,6.02,few clouds
208,Kaitangata,NZ,2021-09-17 12:13:45,-46.2817,169.8464,35.56,80,34,5.95,scattered clouds
209,Ostrovnoy,RU,2021-09-17 12:13:45,68.0531,39.5131,44.67,73,100,8.43,overcast clouds
210,La Asuncion,VE,2021-09-17 12:13:46,11.0333,-63.8628,82.11,77,0,13.87,clear sky
211,Nemuro,JP,2021-09-17 12:13:46,43.3236,145.575,57.49,77,85,14.92,overcast clouds
212,Severo-Kurilsk,RU,2021-09-17 12:13:47,50.6789,156.125,48.9,78,100,8.25,overcast clouds
213,Belaya Gora,RU,2021-09-17 12:12:20,68.5333,146.4167,45.45,73,100,7.18,overcast clouds
214,Tautira,PF,2021-09-17 12:13:47,-17.7333,-149.15,73.42,78,35,21.14,light rain
215,Namibe,AO,2021-09-17 12:13:47,-15.1961,12.1522,72.57,66,35,11.56,scattered clouds
216,Saint-Louis,SN,2021-09-17 12:13:48,16.3333,-15.0,89.76,54,78,9.13,broken clouds
217,Slany,CZ,2021-09-17 12:13:48,50.2305,14.0869,62.98,77,75,12.66,broken clouds
218,Virden,US,2021-09-17 12:13:48,39.5009,-89.7679,65.62,95,0,5.48,clear sky
219,Cherskiy,RU,2021-09-17 12:13:49,68.75,161.3,40.05,79,100,6.98,overcast clouds
220,Sembakung,ID,2021-09-17 12:13:49,3.8167,117.25,75.36,92,59,1.74,broken clouds
221,Gladstone,AU,2021-09-17 12:13:49,-23.85,151.25,67.93,68,40,5.75,scattered clouds
222,Nagato,JP,2021-09-17 12:13:50,34.3833,131.2,76.91,90,100,15.03,light rain
223,Kuusamo,FI,2021-09-17 12:13:51,65.9667,29.1833,44.64,65,90,4.61,overcast clouds
224,Piacabucu,BR,2021-09-17 12:13:51,-10.4056,-36.4344,76.91,78,55,13.42,broken clouds
225,Saint-Philippe,RE,2021-09-17 12:13:52,-21.3585,55.7679,78.35,72,10,8.48,clear sky
226,Coihaique,CL,2021-09-17 12:13:52,-45.5752,-72.0662,42.75,81,40,6.91,scattered clouds
227,Lompoc,US,2021-09-17 12:13:16,34.6391,-120.4579,58.08,88,90,0.0,overcast clouds
228,Haverfordwest,GB,2021-09-17 12:13:52,51.8017,-4.9691,64.54,79,100,18.95,overcast clouds
229,Pisco,PE,2021-09-17 12:13:53,-13.7,-76.2167,56.01,94,54,3.44,mist
230,Lagoa,PT,2021-09-17 12:13:53,39.05,-27.9833,67.84,74,98,11.5,overcast clouds
231,Changji,CN,2021-09-17 12:13:54,44.0167,87.3167,83.19,17,0,2.24,clear sky
232,Georgetown,MY,2021-09-17 12:12:46,5.4112,100.3354,82.33,84,20,3.44,few clouds
233,Warri,NG,2021-09-17 12:13:54,5.5167,5.75,82.0,75,100,5.06,overcast clouds
234,Bambous Virieux,MU,2021-09-17 12:13:55,-20.3428,57.7575,76.21,77,27,9.75,scattered clouds
235,Belgrade,RS,2021-09-17 12:12:32,44.804,20.4651,83.86,37,0,11.5,clear sky
236,Novonikolayevskiy,RU,2021-09-17 12:13:55,50.9738,42.3649,64.89,32,87,8.84,overcast clouds
237,Mercedes,AR,2021-09-17 12:13:56,-34.6515,-59.4307,61.84,71,2,9.17,clear sky
238,Saskylakh,RU,2021-09-17 12:13:56,71.9167,114.0833,32.29,86,100,14.43,overcast clouds
239,Acapulco,MX,2021-09-17 12:11:52,16.8634,-99.8901,76.77,85,86,4.29,overcast clouds
240,Namatanai,PG,2021-09-17 12:13:56,-3.6667,152.4333,79.41,82,48,8.34,scattered clouds
241,Thinadhoo,MV,2021-09-17 12:13:57,0.5333,72.9333,83.77,69,93,5.41,overcast clouds
242,Odweyne,SO,2021-09-17 12:13:57,9.4092,45.064,91.26,24,30,7.2,scattered clouds
243,Te Anau,NZ,2021-09-17 12:13:57,-45.4167,167.7167,33.58,93,53,0.74,broken clouds
244,Zhuanghe,CN,2021-09-17 12:13:58,39.7008,122.9911,67.32,87,49,5.91,light rain
245,Arras,FR,2021-09-17 12:13:58,50.293,2.7819,74.66,69,86,7.38,overcast clouds
246,Leiyang,CN,2021-09-17 12:13:58,26.4024,112.8591,86.7,53,76,4.47,moderate rain
247,Saldanha,ZA,2021-09-17 12:13:59,-33.0117,17.9442,64.92,53,0,7.76,clear sky
248,Iberia,US,2021-09-17 12:13:59,29.9502,-91.7507,75.27,100,20,0.0,few clouds
249,Aranos,NA,2021-09-17 12:13:59,-24.1333,19.1167,78.4,9,0,8.61,clear sky
250,Katsuura,JP,2021-09-17 12:14:00,35.1333,140.3,75.31,68,100,16.64,overcast clouds
251,San Patricio,US,2021-09-17 12:14:00,28.017,-97.5169,79.83,85,12,1.88,few clouds
252,Gualaquiza,EC,2021-09-17 12:14:01,-3.4,-78.55,60.75,97,100,0.81,overcast clouds
253,Hambantota,LK,2021-09-17 12:14:01,6.1241,81.1185,84.92,72,80,22.86,broken clouds
254,Inhambane,MZ,2021-09-17 12:14:02,-23.865,35.3833,70.29,77,98,19.15,light rain
255,Clyde River,CA,2021-09-17 12:14:02,70.4692,-68.5914,29.53,71,98,2.82,overcast clouds
256,Fort Nelson,CA,2021-09-17 12:14:02,58.8053,-122.7002,40.15,82,100,2.13,overcast clouds
257,Gunjur,GM,2021-09-17 12:14:03,13.2019,-16.7339,81.36,76,100,8.68,overcast clouds
258,Chichester,GB,2021-09-17 12:14:03,50.8367,-0.78,71.02,82,95,7.47,overcast clouds
259,Ribeira Grande,PT,2021-09-17 12:14:04,38.5167,-28.7,73.8,83,75,4.61,broken clouds
260,Livingston,GB,2021-09-17 12:10:40,55.9029,-3.5226,65.48,71,20,9.22,few clouds
261,Najran,SA,2021-09-17 12:14:04,17.4924,44.1277,93.58,11,22,13.42,few clouds
262,Port Hedland,AU,2021-09-17 12:14:04,-20.3167,118.5667,75.25,53,12,10.36,few clouds
263,Akranes,IS,2021-09-17 12:14:05,64.3218,-22.0749,47.19,75,95,13.13,overcast clouds
264,Ottobrunn,DE,2021-09-17 12:13:36,48.0624,11.6686,64.18,69,51,1.01,broken clouds
265,Caliling,PH,2021-09-17 12:14:06,9.9804,122.4814,79.25,82,100,5.44,overcast clouds
266,Solsona,ES,2021-09-17 12:14:06,41.994,1.5171,78.58,45,1,9.89,clear sky
267,Waipawa,NZ,2021-09-17 12:14:07,-41.4122,175.5153,43.43,81,100,6.62,overcast clouds
268,Talnakh,RU,2021-09-17 12:14:07,69.4865,88.3972,42.01,70,5,3.4,clear sky
269,Jalalpur,PK,2021-09-17 12:14:08,32.6374,74.2183,87.67,62,20,4.61,smoke
270,Rio Grande,BR,2021-09-17 12:14:08,-32.035,-52.0986,61.95,73,1,14.7,clear sky
271,Trelleborg,SE,2021-09-17 12:14:08,55.3751,13.1569,63.37,78,95,5.03,overcast clouds
272,Torbay,CA,2021-09-17 12:09:29,47.6666,-52.7314,62.89,76,0,5.99,clear sky
273,Sjenica,RS,2021-09-17 12:14:09,43.2731,19.9994,76.28,38,99,18.03,overcast clouds
274,Saint George,US,2021-09-17 12:11:01,37.1041,-113.5841,69.53,20,1,3.44,clear sky
275,Mafinga,TZ,2021-09-17 12:14:09,-7.25,35.0667,94.57,23,3,2.98,clear sky
276,Nome,US,2021-09-17 12:14:10,64.5011,-165.4064,35.67,75,1,0.0,clear sky
277,Sorland,NO,2021-09-17 12:14:10,67.667,12.6934,55.47,84,100,10.09,overcast clouds
278,Cooma,AU,2021-09-17 12:14:11,-36.2333,149.1333,54.9,66,100,12.68,overcast clouds
279,Wadi Musa,JO,2021-09-17 12:14:11,30.3222,35.4793,74.71,47,0,9.6,clear sky
280,Segou,ML,2021-09-17 12:14:12,13.4317,-6.2157,90.18,49,64,6.04,broken clouds
281,Shimoda,JP,2021-09-17 12:14:12,34.6667,138.95,75.47,82,100,12.84,overcast clouds
282,San Carlos De Bariloche,AR,2021-09-17 12:14:12,-41.1456,-71.3082,46.15,61,20,11.5,few clouds
283,Trairi,BR,2021-09-17 12:09:28,-3.2778,-39.2689,86.16,48,11,15.05,few clouds
284,Carballo,ES,2021-09-17 12:14:13,43.213,-8.691,64.08,93,85,6.51,overcast clouds
285,Mednogorsk,RU,2021-09-17 12:14:13,51.4128,57.595,50.83,51,73,14.65,broken clouds
286,Touros,BR,2021-09-17 12:14:14,-5.1989,-35.4608,85.1,62,17,18.63,few clouds
287,Kavieng,PG,2021-09-17 12:14:14,-2.5744,150.7967,82.56,75,26,11.74,scattered clouds
288,Pushchino,RU,2021-09-17 12:14:15,54.8339,37.6264,46.15,51,100,4.47,overcast clouds
289,Viedma,AR,2021-09-17 12:14:15,-40.8135,-62.9967,59.05,42,15,12.39,few clouds
290,Cabedelo,BR,2021-09-17 12:14:15,-6.9811,-34.8339,83.07,68,40,16.13,scattered clouds
291,Killarney,IE,2021-09-17 12:14:16,52.05,-9.5167,59.05,88,75,6.91,broken clouds
292,Fare,PF,2021-09-17 12:14:16,-16.7,-151.0167,78.48,71,2,22.75,clear sky
293,Lasa,IT,2021-09-17 12:14:17,46.6166,10.7002,74.03,60,83,2.24,broken clouds
294,Poltava,UA,2021-09-17 12:14:17,49.5937,34.5407,73.74,26,91,9.51,overcast clouds
295,Longview,US,2021-09-17 12:14:17,32.5007,-94.7405,73.44,91,90,3.44,overcast clouds
296,Plymouth,US,2021-09-17 12:14:18,41.8334,-70.8328,68.88,88,90,1.01,mist
297,Lavrentiya,RU,2021-09-17 12:14:18,65.5833,-171.0,35.24,73,81,3.36,broken clouds
298,Muisne,EC,2021-09-17 12:14:19,0.6,-80.0333,74.46,91,100,8.01,overcast clouds
299,Motala,SE,2021-09-17 12:14:19,58.5371,15.0365,50.32,89,100,14.14,overcast clouds
300,Sydney,AU,2021-09-17 12:09:55,-33.8679,151.2073,61.9,79,0,1.99,clear sky
301,Egvekinot,RU,2021-09-17 12:14:20,66.3167,-179.1667,26.76,85,100,3.74,overcast clouds
302,Poopo,BO,2021-09-17 12:14:20,-18.3667,-66.9667,46.38,63,56,6.24,broken clouds
303,Pendleton,US,2021-09-17 12:14:20,45.6721,-118.7886,56.98,49,1,3.44,clear sky
304,Isangel,VU,2021-09-17 12:14:21,-19.55,169.2667,70.88,83,100,14.12,overcast clouds
305,Lalmohan,BD,2021-09-17 12:14:21,22.3384,90.7419,82.15,82,100,13.89,moderate rain
306,Kautokeino,NO,2021-09-17 12:14:22,69.0125,23.0412,40.89,78,100,17.2,overcast clouds
307,Nyimba,ZM,2021-09-17 12:14:22,-14.5566,30.8149,102.78,9,30,6.55,scattered clouds
308,Nyurba,RU,2021-09-17 12:14:23,63.2842,118.3319,41.68,66,100,6.87,overcast clouds
309,Moose Factory,CA,2021-09-17 12:14:24,51.2585,-80.6094,58.82,86,100,11.16,overcast clouds
310,Villa Bruzual,VE,2021-09-17 12:14:24,9.3328,-69.1208,74.97,89,6,2.04,clear sky
311,Ketchikan,US,2021-09-17 12:14:25,55.3422,-131.6461,46.87,87,90,9.22,light rain
312,Chupa,RU,2021-09-17 12:14:25,66.27,33.0549,47.12,64,90,5.68,overcast clouds
313,Ixtapa,MX,2021-09-17 12:14:25,20.7,-105.2,75.22,100,49,3.56,scattered clouds
314,Vanimo,PG,2021-09-17 12:14:26,-2.6741,141.3028,79.93,84,87,8.59,overcast clouds
315,Kedrovyy,RU,2021-09-17 12:14:26,56.1667,91.8167,57.61,70,43,4.83,scattered clouds
316,Rediu,RO,2021-09-17 12:14:27,47.2167,27.5,74.84,68,20,8.01,few clouds
317,Scarborough,GB,2021-09-17 12:14:27,54.2797,-0.4044,67.53,72,100,4.0,overcast clouds
318,Jasper,US,2021-09-17 12:14:27,37.2001,-94.3502,69.01,88,20,5.75,few clouds
319,Vila Velha,BR,2021-09-17 12:11:34,-20.3297,-40.2925,76.95,83,90,8.05,overcast clouds
320,Manta,EC,2021-09-17 12:14:28,-0.95,-80.7333,72.19,85,99,4.25,overcast clouds
321,Necochea,AR,2021-09-17 12:14:28,-38.5473,-58.7368,58.03,67,0,14.97,clear sky
322,Antofagasta,CL,2021-09-17 12:12:21,-23.65,-70.4,56.48,71,52,7.27,broken clouds
323,Richards Bay,ZA,2021-09-17 12:13:41,-28.783,32.0377,66.74,57,87,15.41,overcast clouds
324,Esperance,AU,2021-09-17 12:14:29,-33.8667,121.9,53.2,65,32,9.57,scattered clouds
325,Sitka,US,2021-09-17 12:14:29,57.0531,-135.33,45.7,90,100,8.77,light rain
326,Mar Del Plata,AR,2021-09-17 12:10:03,-38.0023,-57.5575,55.42,76,0,11.5,clear sky
327,Salalah,OM,2021-09-17 12:14:30,17.0151,54.0924,84.29,84,75,14.97,broken clouds
328,Kavaratti,IN,2021-09-17 12:14:30,10.5669,72.642,81.95,77,24,13.44,few clouds
329,Ursulo Galvan,MX,2021-09-17 12:14:31,22.7333,-98.3,82.33,90,88,0.6,overcast clouds
330,Sangar,RU,2021-09-17 12:14:31,63.9242,127.4739,45.18,97,100,6.11,light rain
331,Longyearbyen,SJ,2021-09-17 12:14:32,78.2186,15.6401,42.64,87,75,5.75,broken clouds
332,Dharchula,IN,2021-09-17 12:14:32,29.85,80.5333,74.91,89,62,2.91,broken clouds
333,Nachingwea,TZ,2021-09-17 12:14:33,-10.3833,38.7667,95.59,23,54,1.45,broken clouds
334,Prince Rupert,CA,2021-09-17 12:14:33,54.3161,-130.3201,44.83,88,100,11.9,light rain
335,Takoradi,GH,2021-09-17 12:14:33,4.8845,-1.7554,82.08,75,94,2.28,moderate rain
336,Boma,GH,2021-09-17 12:14:34,7.0805,-2.1697,79.84,86,99,2.64,moderate rain
337,Ballinrobe,IE,2021-09-17 12:14:34,53.6333,-9.2333,63.7,67,99,7.18,overcast clouds
338,Barra Do Bugres,BR,2021-09-17 12:14:34,-15.0725,-57.1811,88.14,37,0,2.98,clear sky
339,Cayenne,GF,2021-09-17 12:09:37,4.9333,-52.3333,85.08,77,0,3.44,clear sky
340,Dunedin,NZ,2021-09-17 12:14:35,-45.8742,170.5036,41.81,83,79,8.25,broken clouds
341,Dudinka,RU,2021-09-17 12:14:35,69.4058,86.1778,42.57,75,20,10.96,few clouds
342,Grover Beach,US,2021-09-17 12:11:27,35.1216,-120.6213,57.2,82,90,1.99,overcast clouds
343,Wanaka,NZ,2021-09-17 12:14:36,-44.7,169.15,37.11,73,13,1.99,few clouds
344,Marsa Matruh,EG,2021-09-17 12:14:36,31.3525,27.2453,82.0,49,0,18.88,clear sky
345,Kaduqli,SD,2021-09-17 12:14:37,11.0167,29.7167,84.47,65,59,7.63,light rain
346,Shache,CN,2021-09-17 12:14:37,38.4167,77.2406,87.12,12,0,6.2,clear sky
347,Port-Gentil,GA,2021-09-17 12:14:38,-0.7193,8.7815,77.97,82,88,13.24,overcast clouds
348,Say,NE,2021-09-17 12:14:38,13.1007,2.3689,90.45,48,95,11.45,overcast clouds
349,Chapais,CA,2021-09-17 12:14:38,49.7834,-74.8492,55.27,74,23,12.73,few clouds
350,Salmo,CA,2021-09-17 12:14:39,49.1999,-117.2689,45.88,82,100,2.62,overcast clouds
351,Loralai,PK,2021-09-17 12:14:39,30.3705,68.598,91.04,8,0,9.91,clear sky
352,Chengde,CN,2021-09-17 12:14:39,40.9725,117.9361,59.88,64,48,0.74,scattered clouds
353,Flin Flon,CA,2021-09-17 12:14:40,54.7682,-101.865,42.71,93,100,9.66,overcast clouds
354,Okhotsk,RU,2021-09-17 12:14:40,59.3833,143.3,52.83,93,100,24.34,moderate rain
355,Tonota,BW,2021-09-17 12:14:41,-21.4833,27.4833,88.83,25,5,11.39,clear sky
356,Caucaia,BR,2021-09-17 12:14:41,-3.7361,-38.6531,85.95,54,20,20.71,few clouds
357,Viesca,MX,2021-09-17 12:14:41,25.35,-102.8,69.37,66,26,2.77,scattered clouds
358,Northam,GB,2021-09-17 12:14:42,51.0333,-4.2167,70.14,65,84,14.54,broken clouds
359,San Quintin,MX,2021-09-17 12:14:42,30.4833,-115.95,65.44,87,4,9.66,clear sky
360,Bella Union,UY,2021-09-17 12:14:42,-30.2752,-57.6007,58.24,66,23,10.85,few clouds
361,Sar-E Pul,AF,2021-09-17 12:14:43,35.8333,66.1667,80.22,9,0,8.03,clear sky
362,Plastun,RU,2021-09-17 12:14:43,44.7561,136.2939,56.79,88,80,5.32,broken clouds
363,Esil,KZ,2021-09-17 12:14:44,51.9556,66.4042,52.14,44,85,19.57,overcast clouds
364,Dauphin,CA,2021-09-17 12:14:44,51.1494,-100.0502,44.67,68,86,16.31,overcast clouds
365,Brazzaville,CG,2021-09-17 12:13:55,-4.2658,15.2832,90.46,44,96,8.12,overcast clouds
366,Tefe,BR,2021-09-17 12:14:44,-3.3542,-64.7114,77.11,94,0,4.61,clear sky
367,Port Blair,IN,2021-09-17 12:14:45,11.6667,92.75,81.45,79,84,6.38,broken clouds
368,Havre-Saint-Pierre,CA,2021-09-17 12:14:45,50.2334,-63.5986,46.76,100,40,2.3,scattered clouds
369,Smidovich,RU,2021-09-17 12:14:46,48.6,133.8167,60.22,62,34,12.01,scattered clouds
370,Lethem,GY,2021-09-17 12:14:46,3.3803,-59.7968,80.89,71,5,9.26,clear sky
371,Sabha,LY,2021-09-17 12:14:46,27.0377,14.4283,90.57,18,0,9.33,clear sky
372,Pimentel,PE,2021-09-17 12:14:47,-6.8367,-79.9342,59.29,88,75,8.05,mist
373,Mayo,US,2021-09-17 12:14:47,38.8876,-76.5119,73.81,94,90,1.01,mist
374,Leningradskiy,RU,2021-09-17 12:14:48,69.3833,178.4167,29.73,93,100,6.38,light snow
375,Hovd,MN,2021-09-17 12:14:48,48.0056,91.6419,63.48,34,70,10.47,broken clouds
376,Phan Thiet,VN,2021-09-17 12:14:48,10.9333,108.1,79.59,84,62,2.57,broken clouds
377,Chitral,PK,2021-09-17 12:14:49,35.8462,71.7858,84.97,22,0,7.83,clear sky
378,San Juan,AR,2021-09-17 12:10:44,-31.5375,-68.5364,65.73,25,0,1.63,clear sky
379,Naantali,FI,2021-09-17 12:14:49,60.4674,22.0243,54.01,50,75,9.22,broken clouds
380,Beira,MZ,2021-09-17 12:14:50,-19.8436,34.8389,82.49,74,75,14.97,broken clouds
381,Vallenar,CL,2021-09-17 12:14:50,-28.5708,-70.7581,59.83,51,80,1.45,broken clouds
382,Natal,BR,2021-09-17 12:13:13,-5.795,-35.2094,84.85,65,40,10.36,scattered clouds
383,Ancud,CL,2021-09-17 12:14:51,-41.8697,-73.8203,45.93,89,24,9.28,light rain
384,Mogadishu,SO,2021-09-17 12:12:57,2.0371,45.3438,80.87,69,83,15.1,broken clouds
385,Riachao,BR,2021-09-17 12:14:51,-7.3619,-46.6172,89.08,28,22,11.16,few clouds
386,Sur,OM,2021-09-17 12:14:51,22.5667,59.5289,92.79,51,85,7.25,overcast clouds
387,Katherine,AU,2021-09-17 12:14:52,-14.4667,132.2667,77.32,31,100,4.61,overcast clouds
388,Tuatapere,NZ,2021-09-17 12:14:52,-46.1333,167.6833,36.82,89,74,3.94,broken clouds
389,Ios,GR,2021-09-17 12:14:53,36.7333,25.2833,84.11,44,0,5.99,clear sky
390,Itarema,BR,2021-09-17 12:14:53,-2.9248,-39.9167,85.87,51,11,16.93,few clouds
391,Erdaojiang,CN,2021-09-17 12:14:54,41.7764,126.0319,58.42,88,46,3.83,scattered clouds
392,Zemio,CF,2021-09-17 12:14:54,5.0314,25.1361,75.33,88,100,5.7,light rain
393,Yibin,CN,2021-09-17 12:14:55,28.7667,104.6238,72.64,89,95,2.98,light rain
394,Vrangel,RU,2021-09-17 12:14:55,42.7297,133.0839,63.27,87,97,3.31,overcast clouds
395,Paamiut,GL,2021-09-17 12:14:55,61.994,-49.6678,37.45,77,23,17.54,few clouds
396,Mahbubnagar,IN,2021-09-17 12:14:56,16.7333,77.9833,80.35,71,93,3.42,overcast clouds
397,Fortuna,US,2021-09-17 12:10:13,40.5982,-124.1573,52.66,66,14,2.35,few clouds
398,Tucuman,AR,2021-09-17 12:14:07,-26.8241,-65.2226,59.0,38,5,6.91,clear sky
399,Kulai,MY,2021-09-17 12:14:56,1.6561,103.6032,85.82,79,64,4.18,broken clouds
400,Honiara,SB,2021-09-17 12:14:57,-9.4333,159.95,77.52,88,80,6.44,broken clouds
401,Chunskiy,RU,2021-09-17 12:14:57,56.0815,99.6342,48.92,85,98,6.26,overcast clouds
402,Brae,GB,2021-09-17 12:14:57,60.3964,-1.353,58.91,83,100,26.53,overcast clouds
403,Canton,CN,2021-09-17 12:10:49,23.1167,113.25,84.15,55,82,2.71,light rain
404,Smoky Lake,CA,2021-09-17 12:14:58,54.1169,-112.4686,36.88,73,50,6.35,scattered clouds
405,Souillac,MU,2021-09-17 12:14:58,-20.5167,57.5167,76.35,68,64,7.67,light rain
406,Maldonado,UY,2021-09-17 12:14:59,-34.6667,-54.9167,56.59,62,0,7.49,clear sky
407,Kenora,CA,2021-09-17 12:14:59,49.8167,-94.4337,48.18,51,46,11.72,scattered clouds
408,Russkiy Kameshkir,RU,2021-09-17 12:14:59,52.8589,46.0892,49.12,47,100,11.03,overcast clouds
409,Samarai,PG,2021-09-17 12:15:00,-10.6167,150.6667,77.14,76,100,18.88,overcast clouds
410,Cochrane,CA,2021-09-17 12:14:00,51.1834,-114.4687,44.44,59,97,3.65,overcast clouds
411,Ous,RU,2021-09-17 12:15:00,60.9058,61.5186,43.34,67,99,12.3,overcast clouds
412,Kununurra,AU,2021-09-17 12:15:01,-15.7667,128.7333,82.38,54,99,4.61,overcast clouds
413,Cortez,US,2021-09-17 12:15:01,37.3489,-108.5859,58.42,56,1,5.75,clear sky
414,Chingirlau,KZ,2021-09-17 12:15:03,51.095,54.0814,54.99,41,61,13.0,broken clouds
415,Samana,DO,2021-09-17 12:15:03,19.2056,-69.3369,77.22,88,40,0.0,scattered clouds
416,Carutapera,BR,2021-09-17 12:15:04,-1.195,-46.02,84.43,66,8,9.24,clear sky
417,Rochegda,RU,2021-09-17 12:15:04,62.8,43.25,46.81,67,99,9.78,overcast clouds
418,Nykirke,DE,2021-09-17 12:15:05,54.8667,8.7333,59.58,67,49,14.34,scattered clouds
419,Beloha,MG,2021-09-17 12:15:06,-25.1667,45.05,84.33,28,0,13.15,clear sky
420,Bardiyah,LY,2021-09-17 12:15:06,31.7561,25.0865,82.72,51,0,15.88,clear sky
421,Meadow Lake,US,2021-09-17 12:15:07,34.8014,-106.5436,67.15,22,0,2.39,clear sky
422,Taltal,CL,2021-09-17 12:10:20,-25.4,-70.4833,57.99,73,25,4.59,scattered clouds
423,Vostok,RU,2021-09-17 12:15:07,46.4856,135.8833,48.29,87,3,5.03,clear sky
424,Santa Cruz,BO,2021-09-17 12:15:08,-17.8,-63.1667,75.06,34,9,0.09,clear sky
425,Berck,FR,2021-09-17 12:15:08,50.4,1.6,74.7,64,0,4.61,clear sky
426,Luanda,AO,2021-09-17 12:13:04,-8.8368,13.2343,74.82,72,72,10.56,broken clouds
427,Yar-Sale,RU,2021-09-17 12:15:09,66.8333,70.8333,40.77,92,98,25.9,light rain
428,Malanje,AO,2021-09-17 12:15:09,-9.5402,16.341,88.14,29,20,7.72,few clouds
429,Bamberg,DE,2021-09-17 12:15:10,49.8795,10.8863,65.89,59,31,4.97,scattered clouds
430,Yekaterinovka,RU,2021-09-17 12:15:10,52.0508,44.3451,53.91,47,100,5.44,overcast clouds
431,Alice Springs,AU,2021-09-17 12:10:55,-23.7,133.8833,69.35,78,40,8.05,scattered clouds
432,Imeni Poliny Osipenko,RU,2021-09-17 12:12:17,52.4201,136.4853,51.4,62,46,6.6,scattered clouds
433,Waingapu,ID,2021-09-17 12:15:11,-9.6567,120.2641,79.75,77,57,11.21,broken clouds
434,Fajardo,PR,2021-09-17 12:14:58,18.3258,-65.6524,82.33,89,75,0.0,broken clouds
435,Dapaong,TG,2021-09-17 12:10:20,10.8639,0.205,79.83,68,100,3.71,overcast clouds
436,Scottsbluff,US,2021-09-17 12:12:13,41.8666,-103.6672,49.32,66,90,1.99,overcast clouds
437,Sribne,UA,2021-09-17 12:15:12,50.6638,32.9187,68.27,37,97,10.0,overcast clouds
438,Luzhou,CN,2021-09-17 12:15:12,28.8724,105.4405,72.81,88,80,2.98,light rain
439,Collipulli,CL,2021-09-17 12:15:12,-37.95,-72.4333,46.6,93,35,2.46,scattered clouds
440,Pavlovka,RU,2021-09-17 12:15:13,52.6897,47.1405,48.52,49,100,10.27,overcast clouds
441,Mantua,IT,2021-09-17 12:15:13,45.1667,10.7833,81.09,69,99,1.99,overcast clouds
442,Shadrinsk,RU,2021-09-17 12:15:13,56.0852,63.6335,42.39,87,100,14.61,overcast clouds
443,Basoko,CD,2021-09-17 12:15:14,1.2391,23.616,81.86,60,100,2.15,overcast clouds
444,Maceio,BR,2021-09-17 12:13:46,-9.6658,-35.7353,80.04,94,75,8.05,broken clouds
445,Oga,IT,2021-09-17 12:15:14,46.4631,10.347,66.69,56,62,2.8,broken clouds
446,Chipinge,ZW,2021-09-17 12:15:15,-20.1883,32.6236,80.98,40,15,9.46,few clouds
447,Sept-Iles,CA,2021-09-17 12:15:15,50.2001,-66.3821,50.43,92,20,3.0,few clouds
448,Nuqui,CO,2021-09-17 12:15:16,5.7125,-77.2708,77.7,90,100,3.74,light rain
449,Bawku,GH,2021-09-17 12:15:16,11.0616,-0.2417,82.36,65,100,6.85,overcast clouds
450,Ugoofaaru,MV,2021-09-17 12:15:16,5.6667,73.0,83.17,77,81,14.47,broken clouds
451,Kongoussi,BF,2021-09-17 12:15:17,13.3258,-1.5347,87.67,54,98,10.6,overcast clouds
452,Lincoln,US,2021-09-17 12:15:17,40.8,-96.667,71.04,78,90,4.0,overcast clouds
453,Nogliki,RU,2021-09-17 12:15:18,51.8333,143.1667,52.39,89,0,9.69,clear sky
454,La Antigua,CO,2021-09-17 12:15:19,6.7153,-76.079,58.28,91,39,2.1,scattered clouds
455,Joao Camara,BR,2021-09-17 12:15:19,-5.5375,-35.8197,83.44,49,21,17.78,few clouds
456,Russell,US,2021-09-17 12:15:19,32.3502,-85.1999,74.48,90,90,0.0,overcast clouds
457,Ostersund,SE,2021-09-17 12:15:20,63.1792,14.6357,43.25,87,90,12.66,overcast clouds
458,Vao,NC,2021-09-17 12:15:20,-22.6667,167.4833,68.09,58,0,12.41,clear sky
459,Le Pradet,FR,2021-09-17 12:15:21,43.1066,6.0172,82.99,60,0,19.57,clear sky
460,Oriximina,BR,2021-09-17 12:15:21,-1.7656,-55.8661,80.44,71,24,3.44,few clouds
461,Adjumani,UG,2021-09-17 12:15:21,3.3779,31.7909,82.53,54,59,5.77,light rain
462,Humberto De Campos,BR,2021-09-17 12:15:22,-2.5983,-43.4611,85.86,61,29,12.3,scattered clouds
463,Nabire,ID,2021-09-17 12:15:22,-3.3667,135.4833,77.02,92,100,2.77,overcast clouds
464,Sayyan,YE,2021-09-17 12:15:22,15.1718,44.3244,76.23,16,62,9.84,broken clouds
465,Rena,NO,2021-09-17 12:15:23,61.1348,11.3641,51.82,57,82,4.38,broken clouds
466,Gimli,CA,2021-09-17 12:15:23,50.6336,-96.9907,45.43,76,25,5.75,scattered clouds
467,Udachnyy,RU,2021-09-17 12:15:24,66.4167,112.4,34.52,81,100,15.14,overcast clouds
468,Vestmannaeyjar,IS,2021-09-17 12:15:24,63.4427,-20.2734,47.39,71,20,25.32,few clouds
469,Pozo Colorado,PY,2021-09-17 12:15:24,-23.4923,-58.7972,77.32,58,4,2.98,clear sky
470,Klaksvik,FO,2021-09-17 12:15:25,62.2266,-6.589,54.52,99,100,20.38,overcast clouds
471,Wanning,CN,2021-09-17 12:15:25,18.8003,110.3967,81.36,80,8,6.33,light rain
472,Cristalina,BR,2021-09-17 12:15:26,-16.7686,-47.6136,73.85,33,0,14.0,clear sky
473,Verkhovazhye,RU,2021-09-17 12:15:26,60.7472,42.0465,43.03,86,99,8.48,overcast clouds
474,Saint-Augustin,CA,2021-09-17 12:10:31,51.226,-58.6502,55.72,57,28,9.6,scattered clouds
475,Tambopata,PE,2021-09-17 12:15:26,-12.7333,-69.1833,73.29,88,0,2.3,clear sky
476,Mehamn,NO,2021-09-17 12:15:27,71.0357,27.8492,46.31,64,100,13.09,overcast clouds
477,Pavilosta,LV,2021-09-17 12:15:27,56.8879,21.1859,57.15,83,100,17.0,overcast clouds
478,Mpophomeni,ZA,2021-09-17 12:15:28,-29.5682,30.1862,60.3,48,79,7.78,broken clouds
479,Immokalee,US,2021-09-17 12:15:28,26.4187,-81.4173,77.92,99,1,0.0,clear sky
480,Aksha,RU,2021-09-17 12:15:29,50.2814,113.2867,49.33,88,48,4.54,scattered clouds
481,Zhangye,CN,2021-09-17 12:15:29,38.9342,100.4517,73.92,24,100,5.21,overcast clouds
482,Cazones,MX,2021-09-17 12:15:30,20.7167,-97.3167,80.4,83,20,0.0,mist
483,Iranshahr,IR,2021-09-17 12:15:30,27.2025,60.6848,107.94,5,0,9.22,clear sky
484,Vittorio Veneto,IT,2021-09-17 12:15:30,45.9767,12.3033,78.01,68,95,3.96,overcast clouds
485,Plopii Slavitesti,RO,2021-09-17 12:15:31,43.9667,24.6833,93.38,26,97,8.1,overcast clouds
486,Mulege,MX,2021-09-17 12:15:31,26.8833,-111.9833,83.21,59,0,2.15,clear sky
487,Henties Bay,NA,2021-09-17 12:15:32,-22.116,14.2845,57.85,68,5,8.59,clear sky
488,Shubarkuduk,KZ,2021-09-17 12:15:32,49.1447,56.4872,61.57,29,1,13.78,clear sky
489,Talara,PE,2021-09-17 12:15:32,-4.5772,-81.2719,61.56,88,0,18.41,clear sky
490,Cidreira,BR,2021-09-17 12:15:33,-30.1811,-50.2056,63.55,81,54,17.69,broken clouds
491,Acurenam,GQ,2021-09-17 12:15:33,1.0322,10.6488,76.8,83,99,1.66,moderate rain
492,Bathsheba,BB,2021-09-17 12:15:33,13.2167,-59.5167,86.61,66,20,20.71,few clouds
493,Nanortalik,GL,2021-09-17 12:15:34,60.1432,-45.2371,39.72,91,100,13.02,overcast clouds
494,Dafeng,CN,2021-09-17 12:15:34,23.4517,108.5881,79.32,85,38,3.94,scattered clouds
495,Galatas,GR,2021-09-17 12:15:35,37.4962,23.4489,92.75,54,0,11.14,clear sky
496,Lardos,GR,2021-09-17 12:15:35,36.0942,28.0157,85.82,36,0,2.33,clear sky
497,Virginia Beach,US,2021-09-17 12:15:36,36.8529,-75.978,77.05,93,94,3.0,overcast clouds
498,La Ronge,CA,2021-09-17 12:15:36,55.1001,-105.2842,43.05,93,90,6.91,mist
499,Payson,US,2021-09-17 12:15:36,40.0444,-111.7321,62.4,41,1,4.0,clear sky
500,Mpika,ZM,2021-09-17 12:15:37,-11.8343,31.4529,90.32,17,12,9.26,few clouds
501,Orange Cove,US,2021-09-17 12:15:37,36.6244,-119.3137,65.48,88,75,3.44,broken clouds
502,Moron,AR,2021-09-17 12:15:38,-34.6534,-58.6198,64.29,65,0,6.98,clear sky
503,Kaeo,NZ,2021-09-17 12:15:38,-35.1,173.7833,54.32,86,100,5.91,overcast clouds
504,Dombarovskiy,RU,2021-09-17 12:15:38,50.7587,59.5386,55.49,43,10,17.65,clear sky
505,Dalvik,IS,2021-09-17 12:15:39,65.9702,-18.5286,48.13,92,100,1.41,overcast clouds
506,Jiguani,CU,2021-09-17 12:15:39,20.3667,-76.4272,71.38,85,50,3.42,scattered clouds
507,Gotsu,JP,2021-09-17 12:15:39,35.0,132.2167,75.6,90,100,10.58,heavy intensity rain
508,Shingu,JP,2021-09-17 12:15:40,33.7333,135.9833,76.91,93,100,8.23,overcast clouds
509,Kaspiyskiy,RU,2021-09-17 12:15:40,45.3929,47.3707,64.65,34,99,3.4,overcast clouds
510,De Aar,ZA,2021-09-17 12:15:41,-30.6497,24.0123,63.82,21,13,15.17,few clouds
511,Whitehorse,CA,2021-09-17 12:15:41,60.7161,-135.0538,36.37,87,20,5.75,few clouds
512,Cap Malheureux,MU,2021-09-17 12:15:42,-19.9842,57.6142,77.49,75,36,5.01,scattered clouds
513,Pondicherry,IN,2021-09-17 12:11:34,11.93,79.83,88.81,63,99,9.4,overcast clouds
514,Iquique,CL,2021-09-17 12:10:49,-20.2208,-70.1431,57.24,69,37,6.17,scattered clouds
515,Mackenzie,CA,2021-09-17 12:15:41,55.2999,-123.1698,41.22,87,90,2.3,overcast clouds
516,Jumilla,ES,2021-09-17 12:15:42,38.4792,-1.325,83.82,41,11,5.01,few clouds
517,Moramanga,MG,2021-09-17 12:15:43,-18.9333,48.2,83.95,34,11,6.49,few clouds
518,Moranbah,AU,2021-09-17 12:15:43,-22.0016,148.0466,64.4,74,0,14.5,clear sky
519,Sao Felix Do Xingu,BR,2021-09-17 12:15:43,-6.6447,-51.995,85.71,49,35,3.67,scattered clouds
520,Irbit,RU,2021-09-17 12:15:44,57.6705,63.071,41.16,90,100,11.99,overcast clouds
521,Jibuti,DJ,2021-09-17 12:15:44,11.5,42.5,90.82,18,0,5.64,clear sky
522,Suure-Jaani,EE,2021-09-17 12:15:45,58.5361,25.4706,54.28,47,57,11.92,broken clouds
523,Puerto Ayacucho,VE,2021-09-17 12:15:46,5.6639,-67.6236,75.81,88,6,1.79,clear sky
524,Grindavik,IS,2021-09-17 12:15:46,63.8424,-22.4338,46.87,66,75,12.66,broken clouds
525,Walvis Bay,NA,2021-09-17 12:15:46,-22.9575,14.5053,59.95,67,0,9.22,clear sky
526,Marsabit,KE,2021-09-17 12:15:46,2.3284,37.9899,82.9,32,29,13.73,scattered clouds
527,Golega,PT,2021-09-17 12:15:47,39.4047,-8.4863,81.72,99,12,10.0,few clouds
528,Ust-Kuyga,RU,2021-09-17 12:12:13,70.0167,135.6,38.5,97,100,8.23,light rain
529,Dhidhdhoo,MV,2021-09-17 12:15:47,6.8833,73.1,82.87,77,47,14.5,scattered clouds
530,Tenkodogo,BF,2021-09-17 12:15:48,11.78,-0.3697,83.52,63,100,9.37,overcast clouds
531,Sijunjung,ID,2021-09-17 12:15:48,-0.6876,100.9537,74.23,97,74,2.08,broken clouds
532,Manaus,BR,2021-09-17 12:15:49,-3.1019,-60.025,79.29,94,20,5.75,few clouds
533,Port Augusta,AU,2021-09-17 12:15:49,-32.5,137.7667,59.7,61,23,14.88,few clouds
534,Dahuk,IQ,2021-09-17 12:15:49,36.8695,42.994,88.54,17,0,13.47,clear sky
535,Sola,VU,2021-09-17 12:15:50,-13.8833,167.55,79.12,80,41,14.27,scattered clouds
536,Aquidauana,BR,2021-09-17 12:15:50,-20.4711,-55.7872,86.65,48,10,8.75,clear sky
537,Esso,RU,2021-09-17 12:15:50,55.9333,158.7,43.0,86,46,1.07,scattered clouds
538,Camocim,BR,2021-09-17 12:15:51,-2.9022,-40.8411,87.08,51,10,13.11,clear sky
539,Hualmay,PE,2021-09-17 12:15:51,-11.0964,-77.6139,60.98,82,100,7.23,overcast clouds
540,Chalus,IR,2021-09-17 12:15:51,36.655,51.4204,80.06,74,75,9.22,broken clouds
541,Altay,CN,2021-09-17 12:15:52,47.8667,88.1167,62.78,26,16,5.14,few clouds
542,Pemangkat,ID,2021-09-17 12:15:52,1.1667,108.9667,81.77,76,72,5.55,broken clouds
543,Mujiayingzi,CN,2021-09-17 12:15:52,42.1167,118.7833,60.4,55,0,4.9,clear sky
544,Cairns,AU,2021-09-17 12:15:53,-16.9167,145.7667,71.55,75,13,8.05,few clouds
545,Soubre,CI,2021-09-17 12:15:53,5.7856,-6.6083,85.8,62,96,3.38,light rain
546,Parati,BR,2021-09-17 12:15:53,-23.2178,-44.7131,72.5,97,100,4.21,overcast clouds
547,Bloomingdale,US,2021-09-17 12:15:54,27.8936,-82.2404,78.87,96,90,1.01,mist
548,Ewa Beach,US,2021-09-17 12:15:12,21.3156,-158.0072,78.75,72,75,16.11,broken clouds
549,Yinchuan,CN,2021-09-17 12:15:54,38.4681,106.2731,74.75,36,69,7.96,broken clouds
550,Kloulklubed,PW,2021-09-17 12:15:54,7.0419,134.2556,80.2,82,100,12.75,overcast clouds
551,Ayan,RU,2021-09-17 12:15:55,56.45,138.1667,50.07,70,78,16.53,broken clouds
552,Norilsk,RU,2021-09-17 12:15:55,69.3535,88.2027,42.76,70,8,4.29,clear sky
553,Nouadhibou,MR,2021-09-17 12:15:55,20.931,-17.0347,85.98,48,23,12.66,few clouds
554,Cabra,ES,2021-09-17 12:15:56,37.4725,-4.4421,84.65,43,0,4.0,clear sky
555,Bubaque,GW,2021-09-17 12:15:56,11.2833,-15.8333,80.76,78,90,10.83,overcast clouds
556,Kourou,GF,2021-09-17 12:15:57,5.1552,-52.6478,86.11,82,8,6.17,clear sky
557,Mimongo,GA,2021-09-17 12:15:57,-1.6195,11.6068,81.9,68,93,4.32,light rain
558,Marsh Harbour,BS,2021-09-17 12:15:57,26.5412,-77.0636,82.78,70,7,5.3,clear sky
559,Buta,CD,2021-09-17 12:15:58,2.7858,24.73,75.79,89,97,3.94,light rain
560,Aksarka,RU,2021-09-17 12:15:58,66.5606,67.7975,39.97,89,95,23.85,overcast clouds
561,Waddan,LY,2021-09-17 12:15:58,29.1614,16.139,90.19,16,0,7.11,clear sky
562,Attur,IN,2021-09-17 12:15:59,11.6,78.6167,94.24,51,95,3.24,moderate rain
563,Ilulissat,GL,2021-09-17 12:15:59,69.2167,-51.1,26.62,46,20,1.14,few clouds
564,Rorvik,NO,2021-09-17 12:15:59,64.8621,11.2373,59.11,55,0,8.05,clear sky
565,Canon City,US,2021-09-17 12:16:00,38.441,-105.2424,64.56,36,1,16.11,clear sky
566,Siavonga,ZM,2021-09-17 12:16:00,-16.5382,28.7088,94.44,25,33,3.04,scattered clouds
567,Byron Bay,AU,2021-09-17 12:11:48,-28.65,153.6167,63.88,79,0,8.5,clear sky
568,Kharp,RU,2021-09-17 12:16:00,66.8014,65.8081,39.42,85,95,13.24,overcast clouds
569,Riyadh,SA,2021-09-17 12:16:01,24.6877,46.7219,100.54,8,57,14.34,broken clouds
570,Copiapo,CL,2021-09-17 12:16:01,-27.3667,-70.3333,49.69,60,23,0.89,few clouds
571,Medvezhyegorsk,RU,2021-09-17 12:16:02,62.9167,34.4667,49.82,69,88,6.89,overcast clouds
572,Uaua,BR,2021-09-17 12:16:02,-9.8414,-39.4817,77.79,55,87,18.52,overcast clouds
573,Luis Correia,BR,2021-09-17 12:16:02,-2.8792,-41.6669,85.78,57,15,11.34,few clouds
574,Puerto Rico,AR,2021-09-17 12:16:03,-26.796,-55.024,65.28,97,91,2.1,light rain
575,Sembe,CG,2021-09-17 12:16:03,1.6481,14.5806,80.28,67,99,4.74,overcast clouds
576,Mana,GF,2021-09-17 12:16:04,5.6592,-53.7767,81.16,85,5,6.42,clear sky
577,Keti Bandar,PK,2021-09-17 12:16:04,24.1447,67.4497,88.18,68,0,11.7,clear sky
578,Uray,RU,2021-09-17 12:16:04,60.1247,64.7758,43.57,70,100,17.05,overcast clouds
579,San Jose,US,2021-09-17 12:15:46,37.3394,-121.895,59.05,84,90,9.22,overcast clouds
580,Farah,AF,2021-09-17 12:16:05,32.5,62.5,95.43,4,0,8.88,clear sky
581,Saint-Pierre,RE,2021-09-17 12:16:05,-21.3393,55.4781,78.44,76,90,8.05,overcast clouds
582,Oaxaca,MX,2021-09-17 12:16:06,17.05,-96.7167,64.22,94,75,0.0,broken clouds
583,Manavalakurichi,IN,2021-09-17 12:16:06,8.1333,77.3,84.29,76,24,17.63,few clouds
584,Aguas Formosas,BR,2021-09-17 12:16:06,-17.0822,-40.9358,73.71,62,49,6.29,scattered clouds
585,Milton,US,2021-09-17 12:15:42,34.1322,-84.3007,72.05,98,73,4.99,broken clouds
586,Atambua,ID,2021-09-17 12:16:07,-9.1061,124.8925,73.27,78,54,4.52,broken clouds
587,Kaa-Khem,RU,2021-09-17 12:16:07,51.6833,94.7333,60.39,38,42,3.06,scattered clouds
588,Gorontalo,ID,2021-09-17 12:16:08,0.5412,123.0595,74.88,92,98,4.34,overcast clouds
589,Quedlinburg,DE,2021-09-17 12:16:08,51.7833,11.15,62.56,73,100,9.48,overcast clouds
590,Beipiao,CN,2021-09-17 12:16:09,41.7919,120.7792,62.96,58,0,1.66,clear sky
591,Staryy Nadym,RU,2021-09-17 12:16:09,65.6118,72.6842,40.53,96,100,25.52,light rain
592,Bowen,AU,2021-09-17 12:16:09,-20.0167,148.2333,70.47,71,3,15.23,clear sky
593,Fairview,US,2021-09-17 12:16:10,40.8126,-73.999,70.83,90,90,5.75,mist
594,Yaan,NG,2021-09-17 12:16:10,7.3833,8.5667,82.96,70,99,6.15,overcast clouds
595,Aswan,EG,2021-09-17 12:16:10,24.0934,32.907,95.65,15,48,11.56,scattered clouds
596,Labrea,BR,2021-09-17 12:16:11,-7.2586,-64.7981,81.73,59,35,2.48,scattered clouds
597,Jalu,LY,2021-09-17 12:16:11,29.0331,21.5482,90.81,21,0,8.16,clear sky
598,Springbok,ZA,2021-09-17 12:16:11,-29.6643,17.8865,71.78,13,3,22.53,clear sky
599,Stornoway,GB,2021-09-17 12:16:12,58.2093,-6.3865,59.94,94,75,25.32,broken clouds
600,Tezu,IN,2021-09-17 12:16:12,27.9167,96.1667,73.2,98,100,3.56,overcast clouds
601,Kapit,MY,2021-09-17 12:16:12,2.0167,112.9333,75.02,97,29,0.94,scattered clouds
602,Marabba,SD,2021-09-17 12:16:13,12.35,32.1833,93.9,40,45,18.12,scattered clouds
603,Saint-Georges,GD,2021-09-17 12:16:13,12.0564,-61.7485,85.68,74,20,16.11,few clouds
604,Agaro,ET,2021-09-17 12:16:14,7.85,36.65,75.31,66,31,2.77,light rain
605,Jacqueville,CI,2021-09-17 12:16:14,5.2052,-4.4146,78.71,87,66,9.01,light rain
606,Monticello,US,2021-09-17 12:16:14,45.3055,-93.7941,58.95,88,40,5.75,scattered clouds
607,Chulym,RU,2021-09-17 12:16:15,55.0997,80.9572,64.58,49,100,11.36,overcast clouds
608,Ambulu,ID,2021-09-17 12:16:15,-8.345,113.6058,76.8,88,86,5.53,overcast clouds
609,Uribia,CO,2021-09-17 12:16:15,11.7139,-72.266,83.61,68,70,21.23,broken clouds
610,Pochutla,MX,2021-09-17 12:16:16,15.7432,-96.4661,75.02,85,100,3.69,overcast clouds
611,Lovozero,RU,2021-09-17 12:16:16,68.005,35.0117,44.19,68,100,2.1,overcast clouds
612,Oxchuc,MX,2021-09-17 12:16:16,16.85,-92.4167,55.54,98,99,2.64,overcast clouds
613,Guerrero,MX,2021-09-17 12:16:17,17.6667,-100.0,64.47,94,100,2.66,overcast clouds
614,Diffa,NE,2021-09-17 12:16:17,13.3154,12.6113,100.31,24,38,7.99,scattered clouds
615,Sampit,ID,2021-09-17 12:16:18,-2.5333,112.95,75.97,94,65,3.2,broken clouds
616,Tocopilla,CL,2021-09-17 12:16:18,-22.092,-70.1979,62.87,60,20,10.27,few clouds
617,Olafsvik,IS,2021-09-17 12:16:19,64.8945,-23.7142,45.64,67,100,13.2,overcast clouds
618,Tura,IN,2021-09-17 12:16:19,25.5198,90.2201,75.42,91,82,4.81,broken clouds
619,Novaya Igirma,RU,2021-09-17 12:16:19,57.1334,103.9112,43.2,62,100,4.0,overcast clouds
620,Muros,ES,2021-09-17 12:16:20,42.7762,-9.0603,65.23,91,97,5.44,overcast clouds
621,Caravelas,BR,2021-09-17 12:16:20,-17.7125,-39.2481,79.25,53,0,7.76,clear sky
622,Lorengau,PG,2021-09-17 12:16:20,-2.0226,147.2712,81.9,77,27,10.16,scattered clouds
623,Hofn,IS,2021-09-17 12:16:21,64.2539,-15.2082,53.62,94,90,10.36,overcast clouds
624,Odessa,UA,2021-09-17 12:16:21,46.4775,30.7326,73.33,68,0,20.13,clear sky
625,Orchard Homes,US,2021-09-17 12:16:22,46.8633,-114.0484,41.59,51,1,5.01,clear sky
626,Teguldet,RU,2021-09-17 12:16:22,57.3064,88.1667,60.1,69,100,7.87,overcast clouds
627,Yate,GB,2021-09-17 12:16:23,51.5407,-2.4184,69.48,74,99,11.1,overcast clouds
628,Katima Mulilo,NA,2021-09-17 12:16:23,-17.5,24.2667,101.34,8,6,5.53,clear sky
629,Opuwo,NA,2021-09-17 12:16:23,-18.0607,13.84,92.08,10,4,14.76,clear sky
630,Sinnamary,GF,2021-09-17 12:16:24,5.3833,-52.95,82.17,81,38,7.58,scattered clouds
631,Wukari,NG,2021-09-17 12:16:24,7.85,9.7833,81.93,74,100,7.14,overcast clouds
632,Twentynine Palms,US,2021-09-17 12:16:25,34.1356,-116.0542,80.24,16,1,1.01,clear sky
633,Biak,ID,2021-09-17 12:16:25,-0.9131,122.8766,76.44,78,100,5.68,light rain
634,Howard Springs,AU,2021-09-17 12:16:25,-12.497,131.047,78.71,83,81,4.5,broken clouds
635,Banda Aceh,ID,2021-09-17 12:16:26,5.5577,95.3222,81.45,74,89,7.34,overcast clouds
636,Comodoro Rivadavia,AR,2021-09-17 12:16:26,-45.8667,-67.5,51.66,50,0,13.8,clear sky
637,Alyangula,AU,2021-09-17 12:16:26,-13.8483,136.4192,74.34,74,12,8.12,few clouds
638,South Venice,US,2021-09-17 12:16:27,27.0531,-82.4243,79.99,98,1,4.61,mist
639,Cap-Chat,CA,2021-09-17 12:16:27,49.1001,-66.6821,55.4,71,72,9.22,broken clouds
640,Connersville,US,2021-09-17 12:16:27,39.6412,-85.1411,67.28,89,0,4.59,clear sky
641,Kamenka,RU,2021-09-17 12:16:28,51.3223,42.7678,63.19,35,84,6.96,broken clouds
642,Anadyr,RU,2021-09-17 12:16:28,64.75,177.4833,30.7,86,0,2.24,clear sky
643,Komsomolets,KZ,2021-09-17 12:16:29,53.7453,62.0708,47.62,71,100,15.75,overcast clouds
644,Marrakesh,MA,2021-09-17 12:15:38,31.6315,-8.0083,82.47,51,0,5.75,clear sky
645,Igarka,RU,2021-09-17 12:14:04,67.4667,86.5833,44.13,77,100,20.02,light rain
646,Inirida,CO,2021-09-17 12:16:29,3.8653,-67.9239,74.12,96,74,2.01,broken clouds
647,Kasongo,CD,2021-09-17 12:16:30,-4.45,26.6667,88.83,40,91,5.77,light rain
648,Tchollire,CM,2021-09-17 12:16:30,8.4022,14.1698,84.22,66,98,5.61,overcast clouds
649,Weyburn,CA,2021-09-17 12:16:31,49.6668,-103.8511,37.62,70,6,8.05,clear sky
650,Puerto Padre,CU,2021-09-17 12:16:31,21.195,-76.6028,72.61,87,77,6.51,broken clouds
651,Kuybysheve,UA,2021-09-17 12:16:31,47.358,36.6491,74.08,25,27,6.17,scattered clouds
652,Constitucion,CL,2021-09-17 12:16:24,-35.3333,-72.4167,50.68,85,58,8.23,broken clouds
653,Alwaye,IN,2021-09-17 12:16:32,10.1167,76.35,84.15,74,40,9.22,haze
654,Amot,NO,2021-09-17 12:16:32,59.5714,7.9877,49.5,57,82,5.32,broken clouds
655,Usinsk,RU,2021-09-17 12:16:32,65.9939,57.5281,43.56,67,93,20.31,overcast clouds
656,Freeport,US,2021-09-17 12:12:17,40.6576,-73.5832,71.26,92,90,4.0,overcast clouds
657,Warmbad,NA,2021-09-17 12:16:33,-28.45,18.7333,75.16,9,0,18.9,clear sky
658,Progreso,MX,2021-09-17 12:16:33,21.2833,-89.6667,74.1,92,73,9.57,broken clouds
659,Izyaslav,UA,2021-09-17 12:16:34,50.1195,26.8213,75.56,52,96,4.68,overcast clouds
660,Siverek,TR,2021-09-17 12:16:34,37.755,39.3167,83.01,17,0,7.92,clear sky
661,Harthill,GB,2021-09-17 12:16:34,55.8667,-3.75,65.16,86,100,10.76,overcast clouds
662,Shangzhi,CN,2021-09-17 12:16:35,45.2167,127.9667,57.67,81,0,2.59,clear sky
663,Oyama,JP,2021-09-17 12:16:35,36.3,139.8,76.03,77,100,5.99,overcast clouds
664,Mbandaka,CD,2021-09-17 12:16:36,0.0487,18.2603,81.48,61,98,3.33,light rain
665,Sorong,ID,2021-09-17 12:16:36,-0.8833,131.25,79.14,82,77,2.35,heavy intensity rain
666,Mnogovershinnyy,RU,2021-09-17 12:16:36,53.9353,139.9242,42.08,67,14,2.42,few clouds
667,Ciudad Guayana,VE,2021-09-17 12:16:37,8.3533,-62.6528,81.52,83,23,2.53,few clouds
668,Bria,CF,2021-09-17 12:16:37,6.5423,21.9863,70.14,98,100,5.01,light rain
669,Mulatupo,PA,2021-09-17 12:16:37,8.9492,-77.7652,78.85,89,66,2.53,broken clouds
670,Luwuk,ID,2021-09-17 12:16:38,-0.9516,122.7875,77.32,80,100,4.94,light rain
671,Never,FR,2021-09-17 12:16:38,46.9896,3.159,74.64,57,42,3.15,scattered clouds
672,Goderich,CA,2021-09-17 12:16:38,43.7501,-81.7165,62.92,94,0,6.91,clear sky
673,Suarez,CO,2021-09-17 12:16:39,2.954,-76.6964,67.28,78,7,1.63,clear sky
674,Umm Kaddadah,SD,2021-09-17 12:16:39,13.6017,26.6876,96.53,16,46,12.75,scattered clouds
675,Beringovskiy,RU,2021-09-17 12:12:20,63.05,179.3167,37.89,61,9,7.74,clear sky
676,Gazanjyk,TM,2021-09-17 12:16:40,39.2446,55.5154,90.32,38,0,14.72,clear sky
677,Luan,CH,2021-09-17 12:16:40,46.3592,6.9759,70.92,80,53,8.99,broken clouds
678,Saint-Francois,FR,2021-09-17 12:16:40,46.4154,3.9054,76.48,64,20,1.14,few clouds
679,Goure,NE,2021-09-17 12:16:41,13.9835,10.2704,93.02,28,100,10.31,overcast clouds
680,Makakilo City,US,2021-09-17 12:14:01,21.3469,-158.0858,77.32,73,40,5.75,scattered clouds
681,Buala,SB,2021-09-17 12:16:41,-8.145,159.5921,80.11,81,55,7.45,light rain
682,Kerrobert,CA,2021-09-17 12:16:41,51.9168,-109.1348,34.0,59,10,5.55,clear sky
683,Mlonggo,ID,2021-09-17 12:16:42,-6.5333,110.7,85.89,74,92,11.9,overcast clouds
684,Huarmey,PE,2021-09-17 12:16:42,-10.0681,-78.1522,62.26,81,83,7.74,broken clouds
685,Abaza,RU,2021-09-17 12:16:43,52.655,90.0928,60.78,53,67,1.32,broken clouds
686,Dalby,AU,2021-09-17 12:16:43,-27.1833,151.2667,58.98,68,0,14.23,clear sky
687,Ocean City,US,2021-09-17 12:16:44,39.2776,-74.5746,74.21,91,100,8.01,overcast clouds
688,Dawson Creek,CA,2021-09-17 12:16:44,55.7666,-120.2362,42.76,70,1,3.44,clear sky
689,Rawson,AR,2021-09-17 12:16:44,-43.3002,-65.1023,56.79,54,100,5.08,overcast clouds
690,Umm Lajj,SA,2021-09-17 12:16:45,25.0213,37.2685,85.82,62,37,15.05,scattered clouds
691,Mundo Nuevo,MX,2021-09-17 12:16:45,18.7,-95.5,77.45,86,100,5.14,overcast clouds
692,Port Said,EG,2021-09-17 12:16:46,31.2565,32.2841,78.82,61,2,9.55,clear sky
693,Husavik,IS,2021-09-17 12:16:46,66.0449,-17.3389,48.11,90,100,8.3,overcast clouds
694,Truth Or Consequences,US,2021-09-17 12:16:46,33.1284,-107.2528,71.83,28,1,6.91,clear sky
695,Ritchie,ZA,2021-09-17 12:16:46,-29.038,24.6028,70.81,13,2,10.98,clear sky
